[{"city": "Abu Dhabi", "total": 4887.68, "count": 36, "bulletsize": 12, "lon": "54.37031186", "lat": "24.47272884"}, {"city": "Algarve", "total": 56.0, "count": 1, "bulletsize": 4, "lon": "-8.478418877", "lat": "37.1062341"}, {"city": "Amsterdam", "total": 206.0, "count": 2, "bulletsize": 4, "lon": "4.900175562", "lat": "52.37788174"}, {"city": "Auckland", "total": 3882.94, "count": 30, "bulletsize": 12, "lon": "174.7643833", "lat": "-36.84958731"}, {"city": "Bali", "total": 177.31, "count": 2, "bulletsize": 4, "lon": "115.1380019", "lat": "-8.373893436"}, {"city": "Barcelona", "total": 5829.33, "count": 92, "bulletsize": 23, "lon": "2.177161007", "lat": "41.3836564"}, {"city": "Batu Caves", "total": 261.58, "count": 4, "bulletsize": 4, "lon": "101.6821205", "lat": "3.237140286"}, {"city": "Beijing", "total": 57.86, "count": 1, "bulletsize": 4, "lon": "116.400537", "lat": "39.88404892"}, {"city": "Berlin", "total": 31548.32, "count": 540, "bulletsize": 96, "lon": "13.38240052", "lat": "52.51751217"}, {"city": "Birmingham", "total": 991.07, "count": 5, "bulletsize": 4, "lon": "-1.901994435", "lat": "52.48306019"}, {"city": "Brussels", "total": 61.0, "count": 2, "bulletsize": 4, "lon": "4.354187232", "lat": "50.84562954"}, {"city": "Budapest", "total": 20.0, "count": 1, "bulletsize": 4, "lon": "19.03997363", "lat": "47.49977834"}, {"city": "Cape Town", "total": 162.04, "count": 2, "bulletsize": 4, "lon": "18.4278606", "lat": "-33.93465887"}, {"city": "Cologne", "total": 36.0, "count": 1, "bulletsize": 4, "lon": "6.957646731", "lat": "50.94177449"}, {"city": "Doha", "total": 300.74, "count": 2, "bulletsize": 4, "lon": "51.53420272", "lat": "25.30041712"}, {"city": "Dubai", "total": 554256.32, "count": 3877, "bulletsize": 193, "lon": "55.29260032", "lat": "25.27022553"}, {"city": "Dublin", "total": 70.0, "count": 1, "bulletsize": 4, "lon": "-6.266509409", "lat": "53.34254151"}, {"city": "Florence", "total": 35.2, "count": 1, "bulletsize": 4, "lon": "11.25343804", "lat": "43.77183528"}, {"city": "Glasgow", "total": 135.24, "count": 1, "bulletsize": 4, "lon": "-4.270908561", "lat": "55.86991825"}, {"city": "Hong Kong", "total": 74.0, "count": 1, "bulletsize": 4, "lon": "114.1587396", "lat": "22.27794761"}, {"city": "Innsbruck", "total": 142.5, "count": 1, "bulletsize": 4, "lon": "11.38485879", "lat": "47.2667297"}, {"city": "Kuala Lumpur", "total": 37529.12, "count": 321, "bulletsize": 64, "lon": "101.7000694", "lat": "3.159853488"}, {"city": "Kuala Lumpur Tower", "total": 719.89, "count": 16, "bulletsize": 6, "lon": "101.7000694", "lat": "3.159853488"}, {"city": "London", "total": 148705.78, "count": 1037, "bulletsize": 139, "lon": "-0.127117276", "lat": "51.50788888"}, {"city": "Madrid", "total": 74.0, "count": 1, "bulletsize": 4, "lon": "-3.692935799", "lat": "40.42043524"}, {"city": "Manchester", "total": 170.76, "count": 1, "bulletsize": 4, "lon": "-2.233083444", "lat": "53.46723135"}, {"city": "Manila", "total": 41.94, "count": 1, "bulletsize": 4, "lon": "120.9995501", "lat": "14.58336984"}, {"city": "Marrakech", "total": 72.0, "count": 1, "bulletsize": 4, "lon": "-8.007940055", "lat": "31.60808956"}, {"city": "Mauritius", "total": 60.0, "count": 1, "bulletsize": 4, "lon": "57.49753759", "lat": "-20.17869836"}, {"city": "Menorca", "total": 130.0, "count": 1, "bulletsize": 4, "lon": "4.224312", "lat": "39.86643453"}, {"city": "Munich", "total": 1534.92, "count": 12, "bulletsize": 6, "lon": "11.5670788", "lat": "48.1333298"}, {"city": "New York", "total": 2329.33, "count": 24, "bulletsize": 12, "lon": "-73.98412253", "lat": "40.76214416"}, {"city": "Oslo", "total": 85.95, "count": 1, "bulletsize": 4, "lon": "10.81543755", "lat": "59.85535353"}, {"city": "Oxford", "total": 75.55, "count": 1, "bulletsize": 4, "lon": "-1.258406701", "lat": "51.7523154"}, {"city": "Paris", "total": 5043.3, "count": 74, "bulletsize": 23, "lon": "2.35111693", "lat": "48.85678209"}, {"city": "Phuket", "total": 78.36, "count": 2, "bulletsize": 4, "lon": "98.397566", "lat": "7.887933921"}, {"city": "Queenstown", "total": 144.74, "count": 2, "bulletsize": 4, "lon": "168.7393103", "lat": "-45.0214525"}, {"city": "Reykjavik", "total": 176.0, "count": 2, "bulletsize": 4, "lon": "-21.88312494", "lat": "64.14985464"}, {"city": "Rome", "total": 1393.3, "count": 18, "bulletsize": 6, "lon": "12.48169287", "lat": "41.89309282"}, {"city": "Salisbury", "total": 599.27, "count": 11, "bulletsize": 6, "lon": "-1.825942542", "lat": "51.178912"}, {"city": "Schwangau", "total": 239.4, "count": 3, "bulletsize": 4, "lon": "10.73477592", "lat": "47.57655214"}, {"city": "Seoul", "total": 29.01, "count": 1, "bulletsize": 4, "lon": "127.0002634", "lat": "37.58339224"}, {"city": "Shanghai", "total": 658.92, "count": 3, "bulletsize": 4, "lon": "121.4624395", "lat": "31.17415573"}, {"city": "Singapore", "total": 46.71, "count": 2, "bulletsize": 4, "lon": "103.8001548", "lat": "1.299639108"}, {"city": "Split", "total": 40.0, "count": 1, "bulletsize": 4, "lon": "16.44987339", "lat": "43.51011635"}, {"city": "Tokyo", "total": 17117.48, "count": 239, "bulletsize": 40, "lon": "139.7650633", "lat": "35.67650778"}]